{
  "coordinates": {
    "lat": 50.2092,
    "lon": 15.8327
  },
  "transport": {
    "value": 4,
    "bus_stop": {
      "value": 3,
      "entities": [
        {
          "lat": 50.20705,
          "lon": 15.832362,
          "name": "Hradec Králové,,Zimní stadion",
          "distance_m": 210
        },
        {
          "lat": 50.213226,
          "lon": 15.8342515,
          "name": "Hradec Králové,,Šimkova",
          "distance_m": 448
        },
        {
          "lat": 50.2083715,
          "lon": 15.840473,
          "name": "Hradec Králové,,Stará nemocnice",
          "distance_m": 531
        },
        {
          "lat": 50.201989,
          "lon": 15.832474,
          "name": "Hradec Králové,,Heyrovského",
          "distance_m": 802
        },
        {
          "lat": 50.208009000000004,
          "lon": 15.8187735,
          "name": "Hradec Králové,,Lipky",
          "distance_m": 971
        },
        {
          "lat": 50.205116,
          "lon": 15.820462,
          "name": "Hradec Králové,,Labská",
          "distance_m": 982
        },
        {
          "lat": 50.214742,
          "lon": 15.845213000000001,
          "name": "Hradec Králové,,Pospíšilova",
          "distance_m": 1071
        },
        {
          "lat": 50.199286,
          "lon": 15.832527,
          "name": "Hradec Králové,,Fakultní nemocnice B",
          "distance_m": 1102
        },
        {
          "lat": 50.200611,
          "lon": 15.8435785,
          "name": "Hradec Králové,,Hotel Garni",
          "distance_m": 1207
        },
        {
          "lat": 50.216570125000004,
          "lon": 15.813438875000001,
          "name": "Hradec Králové,,Terminál HD",
          "distance_m": 1558
        },
        {
          "lat": 50.214545,
          "lon": 15.811689999999999,
          "name": "Hradec Králové,,Hlavní nádraží",
          "distance_m": 1608
        },
        {
          "lat": 50.2182255,
          "lon": 15.814325,
          "name": "Hradec Králové,,Na Okrouhlíku",
          "distance_m": 1638
        },
        {
          "lat": 50.2231355,
          "lon": 15.842258000000001,
          "name": "Hradec Králové,Pouchov,žel.zast.",
          "distance_m": 1679
        },
        {
          "lat": 50.204668,
          "lon": 15.857827499999999,
          "name": "Hradec Králové,Malšovice,U Čechů",
          "distance_m": 1857
        },
        {
          "lat": 50.215418,
          "lon": 15.857709,
          "name": "Hradec Králové,,Stoletá",
          "distance_m": 1894
        }
      ]
    },
    "train_stop": {
      "value": 4,
      "entities": [
        {
          "lat": 50.2151,
          "lon": 15.8109,
          "name": "Hradec Králové hlavní nádraží",
          "distance_m": 1684
        },
        {
          "lat": 50.2231,
          "lon": 15.8429,
          "name": "Hradec Králové zastávka",
          "distance_m": 1708
        },
        {
          "lat": 50.2029,
          "lon": 15.7996,
          "name": "Hradec Králové-Kukleny",
          "distance_m": 2458
        },
        {
          "lat": 50.2226,
          "lon": 15.861,
          "name": "Hradec Králové-Slezské Předměstí",
          "distance_m": 2505
        },
        {
          "lat": 50.2362,
          "lon": 15.7932,
          "name": "Plotiště nad Labem",
          "distance_m": 4112
        },
        {
          "lat": 50.2534,
          "lon": 15.8191,
          "name": "Předměřice nad Labem",
          "distance_m": 5009
        },
        {
          "lat": 50.2534,
          "lon": 15.7658,
          "name": "Všestary",
          "distance_m": 6841
        },
        {
          "lat": 50.2737,
          "lon": 15.8258,
          "name": "Lochenice",
          "distance_m": 7189
        },
        {
          "lat": 50.2154,
          "lon": 15.9373,
          "name": "Blešno",
          "distance_m": 7475
        },
        {
          "lat": 50.176,
          "lon": 15.7328,
          "name": "Praskačka",
          "distance_m": 8013
        },
        {
          "lat": 50.2625,
          "lon": 15.7272,
          "name": "Dlouhé Dvory",
          "distance_m": 9562
        },
        {
          "lat": 50.3012,
          "lon": 15.8595,
          "name": "Smiřice",
          "distance_m": 10406
        },
        {
          "lat": 50.1674,
          "lon": 15.6973,
          "name": "Lhota pod Libčany",
          "distance_m": 10702
        },
        {
          "lat": 50.2008,
          "lon": 15.9836,
          "name": "Třebechovice pod Orebem",
          "distance_m": 10780
        },
        {
          "lat": 50.3166,
          "lon": 15.871,
          "name": "Černožice",
          "distance_m": 12249
        }
      ]
    }
  },
  "healthcare": {
    "value": 5,
    "doctor_adult": {
      "value": 5,
      "entities": [
        {
          "lat": 50.2082253,
          "lon": 15.8332139,
          "name": "Ordinace praktického lékaře pro dospělé",
          "distance_m": 114
        },
        {
          "lat": 50.2128511,
          "lon": 15.8294503,
          "name": "Ordinace praktického lékaře pro dospělé",
          "distance_m": 467
        },
        {
          "lat": 50.2098614,
          "lon": 15.8231861,
          "name": "Ordinace praktického lékaře pro dospělé",
          "distance_m": 681
        },
        {
          "lat": 50.211835,
          "lon": 15.8235892,
          "name": "Ordinace praktického lékaře pro dospělé",
          "distance_m": 711
        },
        {
          "lat": 50.211835,
          "lon": 15.8235892,
          "name": "Ordinace praktického lékaře pro dospělé",
          "distance_m": 711
        },
        {
          "lat": 50.2133608,
          "lon": 15.8425106,
          "name": "Ordinace praktického lékaře pro dospělé",
          "distance_m": 838
        },
        {
          "lat": 50.2017,
          "lon": 15.835,
          "name": "Ordinace praktického lékaře pro dospělé",
          "distance_m": 850
        },
        {
          "lat": 50.2113314,
          "lon": 15.8210786,
          "name": "Ordinace praktického lékaře pro dospělé",
          "distance_m": 860
        },
        {
          "lat": 50.2113314,
          "lon": 15.8210786,
          "name": "Ordinace praktického lékaře pro dospělé",
          "distance_m": 860
        },
        {
          "lat": 50.2113314,
          "lon": 15.8210786,
          "name": "Ordinace praktického lékaře pro dospělé",
          "distance_m": 860
        },
        {
          "lat": 50.2113314,
          "lon": 15.8210786,
          "name": "Ordinace praktického lékaře pro dospělé",
          "distance_m": 860
        },
        {
          "lat": 50.2113314,
          "lon": 15.8210786,
          "name": "Ordinace praktického lékaře pro dospělé",
          "distance_m": 860
        },
        {
          "lat": 50.2138933,
          "lon": 15.8225778,
          "name": "Ordinace praktického lékaře pro dospělé",
          "distance_m": 889
        },
        {
          "lat": 50.2123375,
          "lon": 15.8208694,
          "name": "Ordinace praktického lékaře pro dospělé",
          "distance_m": 911
        },
        {
          "lat": 50.208745,
          "lon": 15.8185019,
          "name": "Ordinace praktického lékaře pro dospělé",
          "distance_m": 1012
        }
      ]
    },
    "doctor_child": {
      "value": 5,
      "entities": [
        {
          "lat": 50.2098614,
          "lon": 15.8231861,
          "name": "Ordinace lékaře pro děti a dorost",
          "distance_m": 681
        },
        {
          "lat": 50.2160136,
          "lon": 15.8203439,
          "name": "Ordinace lékaře pro děti a dorost",
          "distance_m": 1161
        },
        {
          "lat": 50.2122328,
          "lon": 15.8147914,
          "name": "Ordinace lékaře pro děti a dorost",
          "distance_m": 1318
        },
        {
          "lat": 50.2122328,
          "lon": 15.8147914,
          "name": "Ordinace lékaře pro děti a dorost",
          "distance_m": 1318
        },
        {
          "lat": 50.2177731,
          "lon": 15.8476289,
          "name": "Ordinace lékaře pro děti a dorost",
          "distance_m": 1427
        },
        {
          "lat": 50.1961683,
          "lon": 15.8377189,
          "name": "Ordinace lékaře pro děti a dorost",
          "distance_m": 1492
        },
        {
          "lat": 50.1961683,
          "lon": 15.8377189,
          "name": "Ordinace lékaře pro děti a dorost",
          "distance_m": 1492
        },
        {
          "lat": 50.1961683,
          "lon": 15.8377189,
          "name": "Ordinace lékaře pro děti a dorost",
          "distance_m": 1492
        },
        {
          "lat": 50.2003625,
          "lon": 15.8484839,
          "name": "Ordinace lékaře pro děti a dorost",
          "distance_m": 1493
        },
        {
          "lat": 50.2003625,
          "lon": 15.8484839,
          "name": "Ordinace lékaře pro děti a dorost",
          "distance_m": 1493
        },
        {
          "lat": 50.20529,
          "lon": 15.8126133,
          "name": "Ordinace lékaře pro děti a dorost",
          "distance_m": 1494
        },
        {
          "lat": 50.20529,
          "lon": 15.8126133,
          "name": "Ordinace lékaře pro děti a dorost",
          "distance_m": 1494
        },
        {
          "lat": 50.2188144,
          "lon": 15.8484531,
          "name": "Ordinace lékaře pro děti a dorost",
          "distance_m": 1549
        },
        {
          "lat": 50.2166475,
          "lon": 15.8540636,
          "name": "Ordinace lékaře pro děti a dorost",
          "distance_m": 1731
        },
        {
          "lat": 50.2166475,
          "lon": 15.8540636,
          "name": "Ordinace lékaře pro děti a dorost",
          "distance_m": 1731
        }
      ]
    },
    "hospitals": {
      "value": 5,
      "entities": [
        {
          "lat": 50.1983,
          "lon": 15.8285,
          "name": "Fakultní nemocnice Hradec Králové",
          "distance_m": 1248
        },
        {
          "lat": 50.3571,
          "lon": 15.9064,
          "name": "Oblastní nemocnice Náchod, a.s.",
          "distance_m": 17259
        },
        {
          "lat": 50.2693,
          "lon": 16.1134,
          "name": "Oblastní nemocnice Náchod, a.s.",
          "distance_m": 21052
        },
        {
          "lat": 50.2428,
          "lon": 15.4823,
          "name": "Oblastní nemocnice Jičín, a.s.",
          "distance_m": 25205
        },
        {
          "lat": 50.4484,
          "lon": 15.8145,
          "name": "Městská nemocnice Dvůr Králové nad Labem, a.s.",
          "distance_m": 26629
        },
        {
          "lat": 50.359,
          "lon": 16.1491,
          "name": "Oblastní nemocnice Náchod, a.s.",
          "distance_m": 27979
        },
        {
          "lat": 50.1701,
          "lon": 16.2704,
          "name": "Oblastní nemocnice Náchod, a.s.",
          "distance_m": 31463
        },
        {
          "lat": 50.4108,
          "lon": 16.1675,
          "name": "Oblastní nemocnice Náchod, a.s.",
          "distance_m": 32677
        },
        {
          "lat": 50.5604,
          "lon": 15.9193,
          "name": "Oblastní nemocnice Trutnov, a.s.",
          "distance_m": 39531
        }
      ]
    },
    "special_care": {
      "value": 4,
      "long_term_inpatient_care": {
        "value": 5,
        "entities": [
          {
            "lat": 50.2121,
            "lon": 15.8399,
            "name": "Léčebna pro dlouhodobě nemocné Hradec Králové",
            "distance_m": 605
          },
          {
            "lat": 50.3572,
            "lon": 15.9064,
            "name": "Oblastní nemocnice Náchod a.s.",
            "distance_m": 17270
          },
          {
            "lat": 50.2698,
            "lon": 16.1124,
            "name": "Léčebna dlouhodobě nemocných Opočno",
            "distance_m": 21002
          },
          {
            "lat": 50.3684,
            "lon": 15.6398,
            "name": "Levitovo centrum následné péče Hořice",
            "distance_m": 22387
          },
          {
            "lat": 50.2424,
            "lon": 15.4828,
            "name": "Oblastní nemocnice Jičín a.s.",
            "distance_m": 25164
          },
          {
            "lat": 50.44,
            "lon": 15.8105,
            "name": "CELOP s.r.o.",
            "distance_m": 25712
          },
          {
            "lat": 50.4485,
            "lon": 15.8157,
            "name": "Městská nemocnice, a.s.",
            "distance_m": 26636
          },
          {
            "lat": 50.4756,
            "lon": 16.0847,
            "name": "Oblasní charita Červený Kostelec",
            "distance_m": 34602
          }
        ]
      },
      "rehabilitation_centre": {
        "value": 1,
        "entities": [
          {
            "lat": 50.4303492,
            "lon": 15.5912492,
            "name": "Rehabilitační ústav",
            "distance_m": 29976
          },
          {
            "lat": 50.4295,
            "lon": 15.5887358,
            "name": "Rehabilitační ústav",
            "distance_m": 30001
          },
          {
            "lat": 50.5427003,
            "lon": 15.7179481,
            "name": "Rehabilitační ústav",
            "distance_m": 37966
          }
        ]
      },
      "outpatient_gynecologist": {
        "value": 5,
        "entities": [
          {
            "lat": 50.2101136,
            "lon": 15.836595,
            "name": "Ordinace ambulantního gynekologa ",
            "distance_m": 295
          },
          {
            "lat": 50.2098614,
            "lon": 15.8231861,
            "name": "Ordinace ambulantního gynekologa ",
            "distance_m": 681
          },
          {
            "lat": 50.2098614,
            "lon": 15.8231861,
            "name": "Ordinace ambulantního gynekologa ",
            "distance_m": 681
          },
          {
            "lat": 50.2103953,
            "lon": 15.8207125,
            "name": "Ordinace ambulantního gynekologa ",
            "distance_m": 863
          },
          {
            "lat": 50.2043511,
            "lon": 15.8231367,
            "name": "Ordinace ambulantního gynekologa ",
            "distance_m": 868
          },
          {
            "lat": 50.2061419,
            "lon": 15.8149331,
            "name": "Ordinace ambulantního gynekologa ",
            "distance_m": 1309
          },
          {
            "lat": 50.1961683,
            "lon": 15.8377189,
            "name": "Ordinace ambulantního gynekologa ",
            "distance_m": 1492
          },
          {
            "lat": 50.2003625,
            "lon": 15.8484839,
            "name": "Ordinace ambulantního gynekologa ",
            "distance_m": 1493
          },
          {
            "lat": 50.2072664,
            "lon": 15.8096947,
            "name": "Ordinace ambulantního gynekologa ",
            "distance_m": 1651
          },
          {
            "lat": 50.2072664,
            "lon": 15.8096947,
            "name": "Ordinace ambulantního gynekologa ",
            "distance_m": 1651
          },
          {
            "lat": 50.2166481,
            "lon": 15.8540631,
            "name": "Ordinace ambulantního gynekologa ",
            "distance_m": 1731
          },
          {
            "lat": 50.2166481,
            "lon": 15.8540631,
            "name": "Ordinace ambulantního gynekologa ",
            "distance_m": 1731
          },
          {
            "lat": 50.2166481,
            "lon": 15.8540631,
            "name": "Ordinace ambulantního gynekologa ",
            "distance_m": 1731
          },
          {
            "lat": 50.2259458,
            "lon": 15.8392794,
            "name": "Ordinace ambulantního gynekologa ",
            "distance_m": 1920
          },
          {
            "lat": 50.2069114,
            "lon": 15.7973456,
            "name": "Ordinace ambulantního gynekologa ",
            "distance_m": 2529
          }
        ]
      },
      "dentist": {
        "value": 5,
        "entities": [
          {
            "lat": 50.2081731,
            "lon": 15.8332589,
            "name": "Ordinace zubního lékaře",
            "distance_m": 121
          },
          {
            "lat": 50.2099497,
            "lon": 15.8308453,
            "name": "Ordinace zubního lékaře",
            "distance_m": 156
          },
          {
            "lat": 50.2099497,
            "lon": 15.8308453,
            "name": "Ordinace zubního lékaře",
            "distance_m": 156
          },
          {
            "lat": 50.2105406,
            "lon": 15.8307217,
            "name": "Ordinace zubního lékaře",
            "distance_m": 205
          },
          {
            "lat": 50.2105406,
            "lon": 15.8307217,
            "name": "Ordinace zubního lékaře",
            "distance_m": 205
          },
          {
            "lat": 50.21018,
            "lon": 15.8296144,
            "name": "Ordinace zubního lékaře",
            "distance_m": 245
          },
          {
            "lat": 50.2108103,
            "lon": 15.8353906,
            "name": "Ordinace zubního lékaře",
            "distance_m": 262
          },
          {
            "lat": 50.20827,
            "lon": 15.8275375,
            "name": "Ordinace zubního lékaře",
            "distance_m": 382
          },
          {
            "lat": 50.20827,
            "lon": 15.8275375,
            "name": "Ordinace zubního lékaře",
            "distance_m": 382
          },
          {
            "lat": 50.20827,
            "lon": 15.8275375,
            "name": "Ordinace zubního lékaře",
            "distance_m": 382
          },
          {
            "lat": 50.209135,
            "lon": 15.8381806,
            "name": "Ordinace zubního lékaře",
            "distance_m": 390
          },
          {
            "lat": 50.2075222,
            "lon": 15.8377692,
            "name": "Ordinace zubního lékaře",
            "distance_m": 406
          },
          {
            "lat": 50.2080156,
            "lon": 15.8385694,
            "name": "Ordinace zubního lékaře",
            "distance_m": 438
          },
          {
            "lat": 50.2129197,
            "lon": 15.8353514,
            "name": "Ordinace zubního lékaře",
            "distance_m": 455
          },
          {
            "lat": 50.2128511,
            "lon": 15.8294503,
            "name": "Ordinace zubního lékaře",
            "distance_m": 467
          }
        ]
      }
    }
  },
  "recreation": {
    "value": 4,
    "culture_and_arts": {
      "value": 5,
      "culture_centre": {
        "value": 5,
        "entities": [
          {
            "lat": 50.2112056,
            "lon": 15.8311492,
            "name": "Adalbertinum",
            "distance_m": 249
          },
          {
            "lat": 50.2154883,
            "lon": 15.8290208,
            "name": "Kongresové centrum Aldis",
            "distance_m": 747
          },
          {
            "lat": 50.2129728,
            "lon": 15.8204094,
            "name": "Kulturní dům Střelnice - Hradec Králové",
            "distance_m": 970
          },
          {
            "lat": 50.19568,
            "lon": 15.8457039,
            "name": "Kulturní středisko Médium",
            "distance_m": 1765
          },
          {
            "lat": 50.1967136,
            "lon": 15.8559811,
            "name": "Centrum mladých",
            "distance_m": 2162
          },
          {
            "lat": 50.2630381,
            "lon": 15.9226547,
            "name": "Kulturní a spolkový dům Černilov",
            "distance_m": 8762
          },
          {
            "lat": 50.3001856,
            "lon": 15.8700861,
            "name": "Kulturní středisko Dvorana",
            "distance_m": 10460
          },
          {
            "lat": 50.1979114,
            "lon": 15.9963214,
            "name": "Kulturní dům Třebechovice pod Orebem",
            "distance_m": 11713
          },
          {
            "lat": 50.2351189,
            "lon": 15.6339769,
            "name": "Kulturní dům Nechanice",
            "distance_m": 14429
          },
          {
            "lat": 50.3527486,
            "lon": 15.9184078,
            "name": "Městské kulturní středisko Jaroměř",
            "distance_m": 17084
          },
          {
            "lat": 50.1471844,
            "lon": 16.0750178,
            "name": "Kulturní dům Týniště nad Orlicí",
            "distance_m": 18582
          },
          {
            "lat": 50.1995503,
            "lon": 15.5712242,
            "name": "Kulturní dům Barchov",
            "distance_m": 18640
          },
          {
            "lat": 50.2683978,
            "lon": 16.1158536,
            "name": "Kodymův Národní dům",
            "distance_m": 21186
          },
          {
            "lat": 50.2588167,
            "lon": 15.5361486,
            "name": "Kulturní dům Králíky",
            "distance_m": 21802
          },
          {
            "lat": 50.3703275,
            "lon": 15.6318775,
            "name": "Dům kultury Koruna",
            "distance_m": 22903
          }
        ]
      },
      "library": {
        "value": 5,
        "entities": [
          {
            "lat": 50.2087,
            "lon": 15.8325,
            "name": "Biskupská knihovna Biskupství královéhradeckého",
            "distance_m": 57
          },
          {
            "lat": 50.2084,
            "lon": 15.8337,
            "name": "Školní knihovna Střední a Vyšší odborné zdravotnické školy Hradec Králové",
            "distance_m": 114
          },
          {
            "lat": 50.2099,
            "lon": 15.8342,
            "name": "Knihovna Galerie moderního umění v Hradci Králové",
            "distance_m": 132
          },
          {
            "lat": 50.2108,
            "lon": 15.8327,
            "name": "Lékařská knihovna Lékařské fakulty Univerzity Karlovy a Fakultní nemocnice Hradec Králové",
            "distance_m": 178
          },
          {
            "lat": 50.2117,
            "lon": 15.829,
            "name": "Knihovna Muzea východních Čech v Hradci Králové",
            "distance_m": 383
          },
          {
            "lat": 50.2052,
            "lon": 15.8315,
            "name": "Studijní a vědecká knihovna v Hradci Králové",
            "distance_m": 453
          },
          {
            "lat": 50.2105,
            "lon": 15.8391,
            "name": "Knihovna Krajského soudu v Hradci Králové",
            "distance_m": 478
          },
          {
            "lat": 50.2036,
            "lon": 15.83,
            "name": "Univerzitní knihovna Univerzity Hradec Králové",
            "distance_m": 652
          },
          {
            "lat": 50.216,
            "lon": 15.8262,
            "name": "Knihovna Státního okresního archivu Hradec Králové",
            "distance_m": 886
          },
          {
            "lat": 50.2163,
            "lon": 15.8218,
            "name": "Knihovna města Hradce Králové",
            "distance_m": 1107
          },
          {
            "lat": 50.2067,
            "lon": 15.8515,
            "name": "Knihovna města Hradce Králové, pobočka Malšovice",
            "distance_m": 1366
          },
          {
            "lat": 50.2053,
            "lon": 15.8143,
            "name": "Knihovna města Hradce Králové, pobočka Labská",
            "distance_m": 1379
          },
          {
            "lat": 50.1943,
            "lon": 15.829,
            "name": "Knihovna Fakulty vojenského zdravotnictví UO",
            "distance_m": 1678
          },
          {
            "lat": 50.1957,
            "lon": 15.8457,
            "name": "Knihovna města Hradce Králové, pobočka Moravské Předměstí B",
            "distance_m": 1763
          },
          {
            "lat": 50.2067,
            "lon": 15.7979,
            "name": "Knihovna města Hradce Králové, pobočka Kukleny",
            "distance_m": 2492
          }
        ]
      },
      "museum_and_gallery": {
        "value": 5,
        "entities": [
          {
            "lat": 50.2093475,
            "lon": 15.8314014,
            "name": "Galerie Tři generace Kodetů",
            "distance_m": 94
          },
          {
            "lat": 50.2099381,
            "lon": 15.8340844,
            "name": "Galerie Rondo",
            "distance_m": 128
          },
          {
            "lat": 50.2096139,
            "lon": 15.8309764,
            "name": "Galerie Koruna",
            "distance_m": 131
          },
          {
            "lat": 50.2099331,
            "lon": 15.8342222,
            "name": "Galerie moderního umění v Hradci Králové",
            "distance_m": 136
          },
          {
            "lat": 50.2108147,
            "lon": 15.8327094,
            "name": "Galerie Na Hradě",
            "distance_m": 180
          },
          {
            "lat": 50.2116217,
            "lon": 15.8289833,
            "name": "Muzeum východních Čech v Hradci Králové",
            "distance_m": 377
          },
          {
            "lat": 50.2054639,
            "lon": 15.8316733,
            "name": "Studijní a vědecká knihovna v Hradci Králové - Galerie U Přívozu a Galerie Automat",
            "distance_m": 422
          },
          {
            "lat": 50.2129822,
            "lon": 15.8342839,
            "name": "Depozitář Muzea východních Čech, Gayerova kasárna",
            "distance_m": 435
          },
          {
            "lat": 50.2076453,
            "lon": 15.8385314,
            "name": "Labyrint Divadla Drak",
            "distance_m": 450
          },
          {
            "lat": 50.2076153,
            "lon": 15.8266283,
            "name": "Malá vodní elektrárna Hučák",
            "distance_m": 467
          },
          {
            "lat": 50.203575,
            "lon": 15.8300119,
            "name": "Galerie T",
            "distance_m": 654
          },
          {
            "lat": 50.2092958,
            "lon": 15.8222711,
            "name": "Galerie Ambrož",
            "distance_m": 742
          },
          {
            "lat": 50.2014822,
            "lon": 15.8358164,
            "name": "Galerie na mostě",
            "distance_m": 886
          },
          {
            "lat": 50.2142067,
            "lon": 15.8227683,
            "name": "Galerie Bio Central",
            "distance_m": 900
          },
          {
            "lat": 50.2106675,
            "lon": 15.8201064,
            "name": "Galerie Barbara",
            "distance_m": 911
          }
        ]
      },
      "theatre_and_orchestra": {
        "value": 5,
        "entities": [
          {
            "lat": 50.2107844,
            "lon": 15.8321947,
            "name": "Městská hudební síň",
            "distance_m": 180
          },
          {
            "lat": 50.2108681,
            "lon": 15.8336086,
            "name": "Klicperovo divadlo, Hradec Králové, Letní scéna",
            "distance_m": 196
          },
          {
            "lat": 50.2108767,
            "lon": 15.8341544,
            "name": "Klicperovo divadlo, Hradec Králové, Komorní scéna v podkroví",
            "distance_m": 213
          },
          {
            "lat": 50.2110075,
            "lon": 15.8338883,
            "name": "Klicperovo divadlo",
            "distance_m": 218
          },
          {
            "lat": 50.2112056,
            "lon": 15.8311492,
            "name": "Adalbertinum",
            "distance_m": 249
          },
          {
            "lat": 50.2103447,
            "lon": 15.8371636,
            "name": "Klicperovo divadlo, Hradec Králové, Studio Beseda",
            "distance_m": 342
          },
          {
            "lat": 50.2076822,
            "lon": 15.8385267,
            "name": "Labyrint Divadla Drak",
            "distance_m": 448
          },
          {
            "lat": 50.2076453,
            "lon": 15.8385317,
            "name": "Divadlo Drak",
            "distance_m": 450
          },
          {
            "lat": 50.2138117,
            "lon": 15.8291964,
            "name": "Filharmonie Hradec Králové",
            "distance_m": 570
          },
          {
            "lat": 50.2150589,
            "lon": 15.8548014,
            "name": "Divadlo Jesličky",
            "distance_m": 1702
          },
          {
            "lat": 50.1922539,
            "lon": 15.8519167,
            "name": "PETROF Gallery",
            "distance_m": 2328
          },
          {
            "lat": 50.2800081,
            "lon": 15.7401872,
            "name": "Amfiteátr Chlum",
            "distance_m": 10260
          },
          {
            "lat": 50.3001,
            "lon": 15.8674,
            "name": "Loutkové divadlo Smiřice",
            "distance_m": 10404
          },
          {
            "lat": 50.3525203,
            "lon": 15.9178294,
            "name": "Boučkovo loutkové divadlo",
            "distance_m": 17046
          },
          {
            "lat": 50.3527486,
            "lon": 15.9184078,
            "name": "Městské divadlo Jaroměř",
            "distance_m": 17084
          }
        ]
      }
    },
    "entertainment_and_leisure": {
      "value": 5,
      "amusement_centre": {
        "value": 5,
        "entities": [
          {
            "lat": 50.2131,
            "lon": 15.82,
            "name": "Kulturní dům Střelnice, Hradec Králové",
            "distance_m": 1002
          },
          {
            "lat": 50.2132,
            "lon": 15.8188,
            "name": "Fly Zone Park",
            "distance_m": 1085
          },
          {
            "lat": 50.2048,
            "lon": 15.8187,
            "name": "Obří akvárium",
            "distance_m": 1110
          },
          {
            "lat": 50.1993,
            "lon": 15.8584,
            "name": "A-Sport, zábavní centrum",
            "distance_m": 2135
          },
          {
            "lat": 50.1991,
            "lon": 15.7807,
            "name": "Rodinný zábavní park Tongo Hradec Králové",
            "distance_m": 3868
          },
          {
            "lat": 50.3001,
            "lon": 15.87,
            "name": "Kulturní středisko Dvorana, s.r.o.",
            "distance_m": 10450
          },
          {
            "lat": 50.2899,
            "lon": 16.1539,
            "name": "Kulturní dům, Dobruška",
            "distance_m": 24538
          },
          {
            "lat": 50.431,
            "lon": 15.8118,
            "name": "Hankův dům",
            "distance_m": 24708
          },
          {
            "lat": 50.1712,
            "lon": 15.4603,
            "name": "FAJNPARK, Chlumec nad Cidlinou",
            "distance_m": 26846
          },
          {
            "lat": 50.1561,
            "lon": 15.4494,
            "name": "Chlumecká zahradní železnice Albulabahn",
            "distance_m": 27923
          }
        ]
      },
      "cinema": {
        "value": 5,
        "entities": [
          {
            "lat": 50.2055,
            "lon": 15.8357,
            "name": "Letní kino Širák",
            "distance_m": 464
          },
          {
            "lat": 50.2142,
            "lon": 15.8228,
            "name": "Bio Central",
            "distance_m": 897
          },
          {
            "lat": 50.197,
            "lon": 15.8476,
            "name": "CineStar Hradec Králové",
            "distance_m": 1722
          },
          {
            "lat": 50.2239,
            "lon": 16.0458,
            "name": "Letní kino Ledce",
            "distance_m": 15250
          },
          {
            "lat": 50.3548,
            "lon": 15.8445,
            "name": "KINO Dům pod Kaštany",
            "distance_m": 16212
          },
          {
            "lat": 50.3486,
            "lon": 15.9084,
            "name": "Letní FILMY POD PEVNOSTÍ",
            "distance_m": 16407
          },
          {
            "lat": 50.3527,
            "lon": 15.9184,
            "name": "Divadlo Jaroměř Kinoklub",
            "distance_m": 17079
          },
          {
            "lat": 50.2862,
            "lon": 16.0428,
            "name": "Kino Vzájemnost",
            "distance_m": 17219
          },
          {
            "lat": 50.3586,
            "lon": 15.7172,
            "name": "Letní kino Boháňka-Skála",
            "distance_m": 18529
          },
          {
            "lat": 50.0951,
            "lon": 16.0892,
            "name": "Městské kino Borohrádek",
            "distance_m": 22247
          },
          {
            "lat": 50.3637,
            "lon": 15.6319,
            "name": "Biograf Na Špici",
            "distance_m": 22331
          },
          {
            "lat": 50.239,
            "lon": 15.4924,
            "name": "Jiráskovo divadlo",
            "distance_m": 24435
          },
          {
            "lat": 50.4307,
            "lon": 15.8125,
            "name": "Kino Svět",
            "distance_m": 24671
          },
          {
            "lat": 50.2714,
            "lon": 15.4967,
            "name": "Smidarské letní kino",
            "distance_m": 24876
          },
          {
            "lat": 50.2904,
            "lon": 16.1596,
            "name": "Kino 70",
            "distance_m": 24936
          }
        ]
      },
      "free_time_centre": {
        "value": 5,
        "entities": [
          {
            "lat": 50.2068222,
            "lon": 15.8345236,
            "name": "Dům dětí a mládeže, Hradec Králové, Rautenkrancova 1241",
            "distance_m": 295
          },
          {
            "lat": 50.2104792,
            "lon": 15.8172161,
            "name": "Středisko volného času Pro dětský úsměv z východních Čech",
            "distance_m": 1111
          },
          {
            "lat": 50.2024492,
            "lon": 15.8487886,
            "name": "Dům dětí a mládeže Nová generace, Hradec Králové",
            "distance_m": 1369
          },
          {
            "lat": 50.1996136,
            "lon": 15.8141547,
            "name": "PROINTEPO - Střední škola, Základní škola a Mateřská škola s.r.o.\n(Středisko volného času)",
            "distance_m": 1697
          },
          {
            "lat": 50.3000958,
            "lon": 15.8674147,
            "name": "Dům dětí a mládeže, Smiřice",
            "distance_m": 10404
          },
          {
            "lat": 50.2012039,
            "lon": 15.9953136,
            "name": "Dům dětí a mládeže, Třebechovice pod Orebem",
            "distance_m": 11607
          },
          {
            "lat": 50.3384744,
            "lon": 15.9318483,
            "name": "Dům dětí a mládeže Klíč Jaroměř",
            "distance_m": 16009
          },
          {
            "lat": 50.1472381,
            "lon": 16.0724608,
            "name": "Dům dětí a mládeže, Týniště nad Orlicí, Mírové náměstí 271",
            "distance_m": 18411
          },
          {
            "lat": 50.3648719,
            "lon": 15.6374067,
            "name": "Dům dětí a mládeže Hořice",
            "distance_m": 22184
          },
          {
            "lat": 50.2381944,
            "lon": 15.4853131,
            "name": "Dům dětí a mládeže, Nový Bydžov",
            "distance_m": 24923
          },
          {
            "lat": 50.2928358,
            "lon": 16.1635708,
            "name": "Dům dětí a mládeže Dobruška, Domašínská 363",
            "distance_m": 25297
          },
          {
            "lat": 50.3948953,
            "lon": 16.0426217,
            "name": "Středisko volného času Bájo Česká Skalice",
            "distance_m": 25469
          },
          {
            "lat": 50.4387069,
            "lon": 15.8119228,
            "name": "Dům dětí a mládeže JEDNIČKA, Dvůr Králové nad Labem, Spojených národů 1620",
            "distance_m": 25563
          },
          {
            "lat": 50.1514536,
            "lon": 15.4631086,
            "name": "Dům dětí a mládeže, Chlumec nad Cidlinou",
            "distance_m": 27089
          },
          {
            "lat": 50.3547542,
            "lon": 16.1482706,
            "name": "Dům dětí a mládeže Stonožka, Nové Město nad Metují, Malecí 588",
            "distance_m": 27654
          }
        ]
      },
      "zoo": {
        "value": 4,
        "entities": [
          {
            "lat": 50.2139744,
            "lon": 15.7547636,
            "name": "ZOO park Stěžery",
            "distance_m": 5571
          },
          {
            "lat": 50.4346722,
            "lon": 15.7987117,
            "name": "Safari Park Dvůr Králové",
            "distance_m": 25187
          }
        ]
      }
    },
    "historical_sites": {
      "value": 3,
      "castle": {
        "value": 2,
        "entities": [
          {
            "lat": 50.3409,
            "lon": 16.1596,
            "name": "Zřícenina hradu Výrov",
            "distance_m": 27462
          },
          {
            "lat": 50.4523,
            "lon": 16.05,
            "name": "Zřícenina hradu Červená Hora",
            "distance_m": 31122
          },
          {
            "lat": 50.2273,
            "lon": 16.2889,
            "name": "Zřícenina hradu Skuhrov",
            "distance_m": 32521
          },
          {
            "lat": 50.3572,
            "lon": 16.2355,
            "name": "Zřícenina hradu Frymburk",
            "distance_m": 33014
          },
          {
            "lat": 50.4789,
            "lon": 15.6045,
            "name": "Hrad Pecka",
            "distance_m": 34082
          },
          {
            "lat": 50.4851,
            "lon": 16.0498,
            "name": "Zřícenina hradu Vízmburk",
            "distance_m": 34329
          },
          {
            "lat": 50.2531,
            "lon": 16.3219,
            "name": "Zřícenina hradu Klečkov (Nový hrad)",
            "distance_m": 35138
          },
          {
            "lat": 50.2615,
            "lon": 16.3319,
            "name": "Zřícenina hradu Hlodný",
            "distance_m": 35978
          },
          {
            "lat": 50.0803,
            "lon": 16.2959,
            "name": "Zřícenina hradu Velešov",
            "distance_m": 35985
          },
          {
            "lat": 50.078,
            "lon": 16.3089,
            "name": "Zřícenina hradu Potštejn",
            "distance_m": 36937
          },
          {
            "lat": 50.162,
            "lon": 16.3982,
            "name": "Zřícenina hradu Pěčín",
            "distance_m": 40603
          },
          {
            "lat": 50.5837,
            "lon": 15.8283,
            "name": "Zřícenina hradu Břecštejn",
            "distance_m": 41644
          },
          {
            "lat": 50.4167,
            "lon": 15.3152,
            "name": "Zřícenina hradu Veliš",
            "distance_m": 43390
          },
          {
            "lat": 50.5221,
            "lon": 16.2085,
            "name": "Zřícenina hradu Vlčinec",
            "distance_m": 43830
          },
          {
            "lat": 50.4667,
            "lon": 15.3287,
            "name": "Zřícenina hradu Brada",
            "distance_m": 45818
          }
        ]
      },
      "chateau": {
        "value": 3,
        "entities": [
          {
            "lat": 50.2989,
            "lon": 15.8724,
            "name": "Zámek Smiřice",
            "distance_m": 10366
          },
          {
            "lat": 50.2235,
            "lon": 15.6671,
            "name": "Zámek Hrádek u Nechanic",
            "distance_m": 11890
          },
          {
            "lat": 50.3344,
            "lon": 15.724,
            "name": "Zámek Cerekvice nad Bystřicí",
            "distance_m": 15921
          },
          {
            "lat": 50.2021,
            "lon": 15.569,
            "name": "Zámek Barchov",
            "distance_m": 18784
          },
          {
            "lat": 50.265,
            "lon": 16.1153,
            "name": "Zámek Opočno",
            "distance_m": 21035
          },
          {
            "lat": 50.3977,
            "lon": 15.8895,
            "name": "Hospitál Kuks",
            "distance_m": 21345
          },
          {
            "lat": 50.3913,
            "lon": 15.7289,
            "name": "Zámek Bílé Poličany",
            "distance_m": 21549
          },
          {
            "lat": 50.0981,
            "lon": 16.0958,
            "name": "Zámek Borohrádek",
            "distance_m": 22450
          },
          {
            "lat": 50.2573,
            "lon": 15.4983,
            "name": "Zámek Sloupno",
            "distance_m": 24379
          },
          {
            "lat": 50.1307,
            "lon": 16.187,
            "name": "Zámek Častolovice",
            "distance_m": 26701
          },
          {
            "lat": 50.3439,
            "lon": 16.1497,
            "name": "Zámek Nové Město nad Metují",
            "distance_m": 27052
          },
          {
            "lat": 50.2625,
            "lon": 16.2126,
            "name": "Zámek Skalka",
            "distance_m": 27662
          },
          {
            "lat": 50.4149,
            "lon": 16.0525,
            "name": "Zámek Ratibořice",
            "distance_m": 27691
          },
          {
            "lat": 50.159,
            "lon": 15.4513,
            "name": "Zámek Karlova Koruna, Chlumec nad Cidlinou",
            "distance_m": 27724
          },
          {
            "lat": 50.1226,
            "lon": 16.1997,
            "name": "Nový zámek Kostelec nad Orlicí",
            "distance_m": 27858
          }
        ]
      }
    },
    "nature": {
      "value": 5,
      "nature_curiosity": {
        "value": 5,
        "entities": [
          {
            "lat": 50.2117,
            "lon": 15.835,
            "name": "Žižkovy sady",
            "distance_m": 323
          },
          {
            "lat": 50.2061,
            "lon": 15.8264,
            "name": "Jiráskovy sady",
            "distance_m": 566
          },
          {
            "lat": 50.2156,
            "lon": 15.8353,
            "name": "Šimkovy sady",
            "distance_m": 735
          },
          {
            "lat": 50.2037,
            "lon": 15.8389,
            "name": "Zahrada léčivých rostlin",
            "distance_m": 754
          },
          {
            "lat": 50.1882,
            "lon": 15.8591,
            "name": "Na Plachtě - přírodní památka",
            "distance_m": 2997
          },
          {
            "lat": 50.1725,
            "lon": 15.8326,
            "name": "Slatinná louka u Roudničky",
            "distance_m": 4081
          },
          {
            "lat": 50.1886,
            "lon": 15.8806,
            "name": "Hradecké městské lesy",
            "distance_m": 4107
          },
          {
            "lat": 50.1657,
            "lon": 15.7963,
            "name": "Písníky v okolí Hradce Králové",
            "distance_m": 5487
          },
          {
            "lat": 50.214,
            "lon": 15.7547,
            "name": "ZOOPARK Stěžery",
            "distance_m": 5576
          },
          {
            "lat": 50.2022,
            "lon": 15.9331,
            "name": "Bělečský písník",
            "distance_m": 7188
          },
          {
            "lat": 50.2438,
            "lon": 15.7431,
            "name": "Žižkův stůl",
            "distance_m": 7445
          },
          {
            "lat": 50.1982,
            "lon": 15.9596,
            "name": "Přírodní památka Na bahně",
            "distance_m": 9114
          },
          {
            "lat": 50.192,
            "lon": 15.9822,
            "name": "Řeka Orlice",
            "distance_m": 10811
          },
          {
            "lat": 50.2802,
            "lon": 15.7002,
            "name": "Husova lípa u Dohalic",
            "distance_m": 12292
          },
          {
            "lat": 50.1825,
            "lon": 16.0469,
            "name": "U Houkvice",
            "distance_m": 15534
          }
        ]
      },
      "nature_monuments_and_buffer_zones": {
        "value": 5,
        "entities": [
          {
            "lat": 50.2100638632553,
            "lon": 15.8587083842874,
            "name": "Orlice",
            "distance_m": 1853
          },
          {
            "lat": 50.2090280023475,
            "lon": 15.859282420898,
            "name": "Orlice",
            "distance_m": 1892
          },
          {
            "lat": 50.2118048645766,
            "lon": 15.861879907146,
            "name": "Orlice",
            "distance_m": 2097
          },
          {
            "lat": 50.209246097779,
            "lon": 15.8656588252328,
            "name": "Orlice",
            "distance_m": 2345
          },
          {
            "lat": 50.1907810232004,
            "lon": 15.8513615679343,
            "name": "Na Plachtě 3",
            "distance_m": 2441
          },
          {
            "lat": 50.193735845565,
            "lon": 15.8592645827511,
            "name": "Na Plachtě 3",
            "distance_m": 2556
          },
          {
            "lat": 50.2155231958109,
            "lon": 15.8675222837472,
            "name": "Orlice",
            "distance_m": 2576
          },
          {
            "lat": 50.1932447471814,
            "lon": 15.8610227307799,
            "name": "Na Plachtě 3",
            "distance_m": 2685
          },
          {
            "lat": 50.1880031168147,
            "lon": 15.8522312782269,
            "name": "Na Plachtě",
            "distance_m": 2736
          },
          {
            "lat": 50.1881565213562,
            "lon": 15.8527914477519,
            "name": "Na Plachtě",
            "distance_m": 2742
          },
          {
            "lat": 50.1918481514032,
            "lon": 15.8623459214218,
            "name": "Na Plachtě 3",
            "distance_m": 2859
          },
          {
            "lat": 50.1751968420124,
            "lon": 15.8320047127325,
            "name": "Roudnička a Datlík",
            "distance_m": 3781
          },
          {
            "lat": 50.1747738825885,
            "lon": 15.830385456501,
            "name": "Roudnička a Datlík",
            "distance_m": 3832
          },
          {
            "lat": 50.2387052984945,
            "lon": 15.8619524804302,
            "name": "Piletický a Librantický potok",
            "distance_m": 3885
          },
          {
            "lat": 50.1695918414493,
            "lon": 15.8400030045202,
            "name": "Roudnička a Datlík",
            "distance_m": 4435
          }
        ]
      }
    },
    "wellness_and_lifestyle": {
      "value": 4,
      "beer_brewery": {
        "value": 5,
        "entities": [
          {
            "lat": 50.20944583,
            "lon": 15.83479111,
            "name": "Pivovarské domy, Hradec Králové",
            "distance_m": 151
          },
          {
            "lat": 50.21225,
            "lon": 15.83227333,
            "name": "Hostinec U Kohouta - Pivovar Kubík",
            "distance_m": 341
          },
          {
            "lat": 50.20906667,
            "lon": 15.81439917,
            "name": "Rodinný pivovar 713",
            "distance_m": 1302
          },
          {
            "lat": 50.21440278,
            "lon": 15.74802028,
            "name": "Pivovar Beránek, Stěžery",
            "distance_m": 6053
          },
          {
            "lat": 50.17632667,
            "lon": 15.74156639,
            "name": "Rodinný pivovar Propper",
            "distance_m": 7447
          },
          {
            "lat": 50.19720722,
            "lon": 15.94189778,
            "name": "Pivovar a hostinec U Hušků",
            "distance_m": 7885
          },
          {
            "lat": 50.29602667,
            "lon": 15.67607583,
            "name": "Pivovar Lindr, Mžany",
            "distance_m": 14738
          },
          {
            "lat": 50.2238367,
            "lon": 16.0428342,
            "name": "Pivovar Ovipistán",
            "distance_m": 15040
          },
          {
            "lat": 50.26795592,
            "lon": 16.10900271,
            "name": "Pivovar Baron, Opočno",
            "distance_m": 20708
          },
          {
            "lat": 50.36970944,
            "lon": 15.63797333,
            "name": "Pivovar JungBerg",
            "distance_m": 22582
          },
          {
            "lat": 50.41982,
            "lon": 15.80900556,
            "name": "Pivovar Tambor, Dvůr Králové nad Labem",
            "distance_m": 23480
          },
          {
            "lat": 50.4040925,
            "lon": 15.68121028,
            "name": "Minipivovar a pivovarská zahrádka Miletín",
            "distance_m": 24195
          },
          {
            "lat": 50.43475722,
            "lon": 15.79866028,
            "name": "Safari pivovar",
            "distance_m": 25197
          },
          {
            "lat": 50.29475278,
            "lon": 16.16251389,
            "name": "Rodinný pivovar Dobruška",
            "distance_m": 25306
          },
          {
            "lat": 50.15468083,
            "lon": 15.45923861,
            "name": "Rodinný pivovar U Vacků",
            "distance_m": 27274
          }
        ]
      },
      "spa": {
        "value": 3,
        "entities": [
          {
            "lat": 50.3548619,
            "lon": 15.8457511,
            "name": "Léčebna dospělých",
            "distance_m": 16223
          },
          {
            "lat": 50.3559539,
            "lon": 15.8467433,
            "name": "Léčebna dospělých",
            "distance_m": 16349
          },
          {
            "lat": 50.4294886,
            "lon": 15.5887747,
            "name": "Léčebna dospělých, Léčebna dětí a dorostu",
            "distance_m": 29999
          },
          {
            "lat": 50.4299808,
            "lon": 15.5868469,
            "name": "Léčebna dětí a dorostu",
            "distance_m": 30123
          },
          {
            "lat": 50.6279231,
            "lon": 15.7803608,
            "name": "Dětská léčebna Vesna",
            "distance_m": 46707
          },
          {
            "lat": 50.6310506,
            "lon": 15.7809536,
            "name": "Léčebna dospělých, Lázeňský dům",
            "distance_m": 47051
          },
          {
            "lat": 50.6312289,
            "lon": 15.7820592,
            "name": "Léčebna dospělých, Janský Dvůr",
            "distance_m": 47064
          }
        ]
      }
    }
  },
  "education": {
    "value": 5,
    "art_school": {
      "value": 5,
      "entities": [
        {
          "lat": 50.2119922,
          "lon": 15.8316803,
          "name": "BONI PUERI - základní umělecká škola, Hradec Králové",
          "distance_m": 319
        },
        {
          "lat": 50.2062919,
          "lon": 15.8337133,
          "name": "Biskupské gymnázium, církevní základní škola, mateřská škola a základní umělecká škola Hradec Králové",
          "distance_m": 331
        },
        {
          "lat": 50.2125267,
          "lon": 15.834395,
          "name": "Základní umělecká škola JITRO Hradec Králové",
          "distance_m": 389
        },
        {
          "lat": 50.2138775,
          "lon": 15.8507439,
          "name": "Základní umělecká škola Střezina, Hradec Králové, Luční 838",
          "distance_m": 1385
        },
        {
          "lat": 50.2108697,
          "lon": 15.8125342,
          "name": "Základní umělecká škola, Hradec Králové, Habrmanova 130",
          "distance_m": 1447
        },
        {
          "lat": 50.2971586,
          "lon": 15.8648353,
          "name": "Základní umělecká škola, Smiřice",
          "distance_m": 10044
        },
        {
          "lat": 50.1999914,
          "lon": 15.995605,
          "name": "Základní umělecká škola, Třebechovice pod Orebem",
          "distance_m": 11639
        },
        {
          "lat": 50.3519431,
          "lon": 15.9148617,
          "name": "Základní umělecká škola F. A. Šporka, Jaroměř",
          "distance_m": 16912
        },
        {
          "lat": 50.1472772,
          "lon": 16.0754661,
          "name": "Základní umělecká škola, Týniště nad Orlicí, Tyršovo náměstí 235",
          "distance_m": 18608
        },
        {
          "lat": 50.2660325,
          "lon": 16.114385,
          "name": "Základní umělecká škola Luboše Sluky, Opočno, příspěvková organizace.",
          "distance_m": 21007
        },
        {
          "lat": 50.3662786,
          "lon": 15.6322897,
          "name": "Základní umělecká škola MELODIE, s.r.o.",
          "distance_m": 22534
        },
        {
          "lat": 50.3678714,
          "lon": 15.6241169,
          "name": "Základní umělecká škola Hořice, Havlíčkova 1107",
          "distance_m": 23041
        },
        {
          "lat": 50.2400164,
          "lon": 15.49014,
          "name": "Základní umělecká škola Jana Maláta, Nový Bydžov",
          "distance_m": 24610
        },
        {
          "lat": 50.4317883,
          "lon": 15.8132292,
          "name": "Základní umělecká škola R. A. Dvorského, Dvůr Králové nad Labem, náměstí T. G. Masaryka 83",
          "distance_m": 24789
        }
      ]
    },
    "school": {
      "value": 5,
      "kindergarten": {
        "value": 5,
        "entities": [
          {
            "lat": 50.2107,
            "lon": 15.8319,
            "name": "Biskupské gymnázium, církevní základní škola, mateřská škola a základní umělecká škola Hradec Králové",
            "distance_m": 176
          },
          {
            "lat": 50.2116,
            "lon": 15.843,
            "name": "Mateřská škola Čtyřlístek, Hradec Králové, Švendova 1127",
            "distance_m": 780
          },
          {
            "lat": 50.2149,
            "lon": 15.8257,
            "name": "Základní škola a Mateřská škola Josefa Gočára, Hradec Králové, Tylovo nábřeží 1140",
            "distance_m": 806
          },
          {
            "lat": 50.2003,
            "lon": 15.8269,
            "name": "Základní škola a Mateřská škola při Fakultní nemocnici, Hradec Králové, Sokolská 581",
            "distance_m": 1072
          },
          {
            "lat": 50.2052,
            "lon": 15.8175,
            "name": "Mateřská škola, Hradec Králové, Kampanova 1488",
            "distance_m": 1170
          },
          {
            "lat": 50.2154,
            "lon": 15.848,
            "name": "Mateřská škola, základní škola a střední škola Daneta, s.r.o.",
            "distance_m": 1289
          },
          {
            "lat": 50.2024,
            "lon": 15.8487,
            "name": "Mateřská škola Sion, Hradec Králové",
            "distance_m": 1367
          },
          {
            "lat": 50.2197,
            "lon": 15.8446,
            "name": "Mateřská škola Lužická, Hradec Králové, Severní 842",
            "distance_m": 1442
          },
          {
            "lat": 50.2009,
            "lon": 15.8159,
            "name": "Mateřská škola Kamarád, Hradec Králové, Veverkova 1495",
            "distance_m": 1510
          },
          {
            "lat": 50.2184,
            "lon": 15.8488,
            "name": "Mateřská škola, Speciální základní škola a Praktická škola, Hradec Králové",
            "distance_m": 1536
          },
          {
            "lat": 50.2145,
            "lon": 15.8546,
            "name": "Mateřská škola, Hradec Králové, Třebechovická 837",
            "distance_m": 1666
          },
          {
            "lat": 50.1996,
            "lon": 15.8141,
            "name": "PROINTEPO - Střední škola, Základní škola a Mateřská škola s.r.o.",
            "distance_m": 1701
          },
          {
            "lat": 50.1944,
            "lon": 15.8425,
            "name": "Základní škola a Mateřská škola Pohádka, Hradec Králové, Mandysova 1434",
            "distance_m": 1787
          },
          {
            "lat": 50.199,
            "lon": 15.8537,
            "name": "Základní škola a Mateřská škola, Hradec Králové, Štefcova 1092",
            "distance_m": 1876
          },
          {
            "lat": 50.1993,
            "lon": 15.8541,
            "name": "Základní škola a Mateřská škola, Hradec Králové, Úprkova 1",
            "distance_m": 1879
          }
        ]
      },
      "primary": {
        "value": 5,
        "entities": [
          {
            "lat": 50.2107,
            "lon": 15.8319,
            "name": "Biskupské gymnázium, církevní základní škola, mateřská škola a základní umělecká škola Hradec Králové",
            "distance_m": 176
          },
          {
            "lat": 50.208,
            "lon": 15.8231,
            "name": "Základní škola a Mateřská škola Josefa Gočára, Hradec Králové, Tylovo nábřeží 1140",
            "distance_m": 696
          },
          {
            "lat": 50.2022,
            "lon": 15.833,
            "name": "Mateřská škola, Speciální základní škola a Praktická škola, Hradec Králové",
            "distance_m": 779
          },
          {
            "lat": 50.2003,
            "lon": 15.8269,
            "name": "Základní škola a Mateřská škola při Fakultní nemocnici, Hradec Králové, Sokolská 581",
            "distance_m": 1072
          },
          {
            "lat": 50.2036,
            "lon": 15.8187,
            "name": "Základní škola, Hradec Králové, Bezručova 1468",
            "distance_m": 1175
          },
          {
            "lat": 50.2103,
            "lon": 15.8155,
            "name": "Mateřská škola, základní škola a střední škola Daneta, s.r.o.",
            "distance_m": 1230
          },
          {
            "lat": 50.2168,
            "lon": 15.8476,
            "name": "Základní škola SEVER, Hradec Králové, Lužická 1208",
            "distance_m": 1356
          },
          {
            "lat": 50.2108,
            "lon": 15.8125,
            "name": "Základní škola, Hradec Králové, Habrmanova 130",
            "distance_m": 1448
          },
          {
            "lat": 50.2177,
            "lon": 15.8153,
            "name": "První soukromá základní škola v Hradci Králové, s.r.o.",
            "distance_m": 1558
          },
          {
            "lat": 50.2059,
            "lon": 15.8107,
            "name": "Základní škola a Mateřská škola, Hradec Králové, Jiráskovo nám. 1166",
            "distance_m": 1608
          },
          {
            "lat": 50.2043,
            "lon": 15.854,
            "name": "Základní škola a Mateřská škola, Hradec Králové, Úprkova 1",
            "distance_m": 1611
          },
          {
            "lat": 50.1996,
            "lon": 15.8141,
            "name": "PROINTEPO - Střední škola, Základní škola a Mateřská škola s.r.o.",
            "distance_m": 1701
          },
          {
            "lat": 50.1956,
            "lon": 15.8457,
            "name": "Základní škola Comenius",
            "distance_m": 1773
          },
          {
            "lat": 50.1944,
            "lon": 15.8425,
            "name": "Základní škola a Mateřská škola Pohádka, Hradec Králové, Mandysova 1434",
            "distance_m": 1787
          },
          {
            "lat": 50.1944,
            "lon": 15.8425,
            "name": "Základní škola Sion J. A. Komenského, Hradec Králové",
            "distance_m": 1787
          }
        ]
      },
      "high": {
        "value": 5,
        "entities": [
          {
            "lat": 50.2089,
            "lon": 15.8367,
            "name": "Vyšší odborná škola zdravotnická a Střední zdravotnická škola, Hradec Králové, Komenského 234",
            "distance_m": 287
          },
          {
            "lat": 50.2089,
            "lon": 15.8367,
            "name": "Vyšší odborná škola zdravotnická a Střední zdravotnická škola, Hradec Králové, Komenského 234",
            "distance_m": 287
          },
          {
            "lat": 50.2063,
            "lon": 15.8336,
            "name": "Biskupské gymnázium, církevní základní škola, mateřská škola a základní umělecká škola Hradec Králové",
            "distance_m": 329
          },
          {
            "lat": 50.2062,
            "lon": 15.8362,
            "name": "Střední průmyslová škola, Střední odborná škola a Střední odborné učiliště, Hradec Králové",
            "distance_m": 416
          },
          {
            "lat": 50.2111,
            "lon": 15.8382,
            "name": "Hotelová škola Hradec Králové, s.r.o.",
            "distance_m": 445
          },
          {
            "lat": 50.2086,
            "lon": 15.8254,
            "name": "Gymnázium J. K. Tyla, Hradec Králové, Tylovo nábř. 682",
            "distance_m": 524
          },
          {
            "lat": 50.2122,
            "lon": 15.8389,
            "name": "Gymnázium Boženy Němcové, Hradec Králové, Pospíšilova tř. 324",
            "distance_m": 553
          },
          {
            "lat": 50.2037,
            "lon": 15.8343,
            "name": "Střední škola a vyšší odborná škola aplikované kybernetiky s.r.o.",
            "distance_m": 622
          },
          {
            "lat": 50.2037,
            "lon": 15.8343,
            "name": "Střední škola a vyšší odborná škola aplikované kybernetiky s.r.o.",
            "distance_m": 622
          },
          {
            "lat": 50.2037,
            "lon": 15.8343,
            "name": "Střední škola Sion High School, Hradec Králové",
            "distance_m": 622
          },
          {
            "lat": 50.203,
            "lon": 15.8345,
            "name": "Střední uměleckoprůmyslová škola hudebních nástrojů a nábytku, Hradec Králové, 17. listopadu 1202",
            "distance_m": 701
          },
          {
            "lat": 50.2131,
            "lon": 15.8408,
            "name": "Obchodní akademie, Střední odborná škola a Jazyková škola s právem státní jazykové zkoušky, Hradec Králové",
            "distance_m": 721
          },
          {
            "lat": 50.2027,
            "lon": 15.8342,
            "name": "Střední škola profesní přípravy, Hradec Králové",
            "distance_m": 731
          },
          {
            "lat": 50.2022,
            "lon": 15.833,
            "name": "Mateřská škola, Speciální základní škola a Praktická škola, Hradec Králové",
            "distance_m": 779
          },
          {
            "lat": 50.2137,
            "lon": 15.8422,
            "name": "Střední průmyslová škola stavební, Hradec Králové, Pospíšilova tř. 787",
            "distance_m": 841
          }
        ]
      },
      "university": {
        "value": 5,
        "entities": [
          {
            "lat": 50.2088,
            "lon": 15.8335,
            "name": "Univerzita Hradec Králové",
            "distance_m": 72
          },
          {
            "lat": 50.2108,
            "lon": 15.8327,
            "name": "Univerzita Karlova",
            "distance_m": 178
          },
          {
            "lat": 50.2089,
            "lon": 15.8301,
            "name": "Univerzita Hradec Králové",
            "distance_m": 188
          },
          {
            "lat": 50.2077,
            "lon": 15.8299,
            "name": "Univerzita Hradec Králové",
            "distance_m": 260
          },
          {
            "lat": 50.2138,
            "lon": 15.835,
            "name": "Univerzita Karlova",
            "distance_m": 537
          },
          {
            "lat": 50.2037,
            "lon": 15.8287,
            "name": "Univerzita Hradec Králové",
            "distance_m": 675
          },
          {
            "lat": 50.2014,
            "lon": 15.8358,
            "name": "Univerzita Karlova",
            "distance_m": 895
          },
          {
            "lat": 50.2033,
            "lon": 15.8432,
            "name": "Univerzita Hradec Králové",
            "distance_m": 994
          },
          {
            "lat": 50.1978,
            "lon": 15.8306,
            "name": "Univerzita Karlova",
            "distance_m": 1276
          },
          {
            "lat": 50.1942,
            "lon": 15.829,
            "name": "Univerzita obrany",
            "distance_m": 1689
          }
        ]
      }
    }
  },
  "work": {
    "value": 3,
    "industrial_zone": {
      "value": 3,
      "entities": [
        {
          "lat": 50.2387,
          "lon": 15.843,
          "name": "Letiště",
          "distance_m": 3361
        },
        {
          "lat": 50.346,
          "lon": 15.9028,
          "name": "JARO",
          "distance_m": 16006
        },
        {
          "lat": 50.3655,
          "lon": 15.6243,
          "name": "Hořice",
          "distance_m": 22831
        },
        {
          "lat": 50.4302,
          "lon": 15.8332,
          "name": "Zboží",
          "distance_m": 24574
        },
        {
          "lat": 50.221,
          "lon": 15.4801,
          "name": "Zábědov",
          "distance_m": 25123
        },
        {
          "lat": 50.399,
          "lon": 16.107,
          "name": "Vysokov",
          "distance_m": 28722
        }
      ]
    }
  },
  "qol": {
    "value": 3,
    "air_quality": {
      "value": 3,
      "benzopyren": {
        "value": 4,
        "entities": [
          {
            "lat": 50.354215,
            "lon": 15.838535,
            "name": "Velichovky",
            "distance_m": 16130
          },
          {
            "lat": 50.024038,
            "lon": 15.763549,
            "name": "Pardubice Dukla",
            "distance_m": 21171
          },
          {
            "lat": 50.488333,
            "lon": 16.03,
            "name": "Havlovice",
            "distance_m": 34049
          }
        ]
      },
      "dust": {
        "value": 2,
        "entities": [
          {
            "lat": 50.19536304908092,
            "lon": 15.846375950914823,
            "name": "Hradec Králové-Brněnská",
            "distance_m": 1821
          },
          {
            "lat": 50.21853303098173,
            "lon": 15.857006027077022,
            "name": "Hradec Králové - tř. SNP",
            "distance_m": 2017
          },
          {
            "lat": 50.02403796828877,
            "lon": 15.76354894369491,
            "name": "Pardubice Dukla",
            "distance_m": 21171
          }
        ]
      },
      "oxide": {
        "value": 3,
        "entities": [
          {
            "lat": 50.2117019811174,
            "lon": 15.814149002989263,
            "name": "Hr.Král.-Sukovy sady",
            "distance_m": 1349
          },
          {
            "lat": 50.19536304908092,
            "lon": 15.846375950914823,
            "name": "Hradec Králové-Brněnská",
            "distance_m": 1821
          },
          {
            "lat": 50.042199970743276,
            "lon": 15.739413946284227,
            "name": "Pardubice-Rosice",
            "distance_m": 19724
          }
        ]
      }
    },
    "flood_risk": {
      "value": 1,
      "5year": {
        "value": 1,
        "entities": [
          {
            "name": "Nearest flood zone",
            "distance_m": 307
          }
        ]
      },
      "20year": {
        "value": 1,
        "entities": [
          {
            "name": "Nearest flood zone",
            "distance_m": 305
          }
        ]
      },
      "100year": {
        "value": 1,
        "entities": [
          {
            "name": "Nearest flood zone",
            "distance_m": 302
          }
        ]
      }
    },
    "izs": {
      "value": 5,
      "ambulance": {
        "value": 5,
        "entities": [
          {
            "lat": 50.2004,
            "lon": 15.8269,
            "name": "Areál LZS Fakultní nemocnice",
            "distance_m": 1062
          },
          {
            "lat": 50.1984,
            "lon": 15.8337,
            "name": "Hlavní budova",
            "distance_m": 1203
          },
          {
            "lat": 50.2013,
            "lon": 15.7779,
            "name": "Bláhovka",
            "distance_m": 3998
          }
        ]
      },
      "firefighter": {
        "value": 5,
        "entities": [
          {
            "lat": 50.2056,
            "lon": 15.8303,
            "name": "Krajské ředitelství",
            "distance_m": 435
          },
          {
            "lat": 50.2056,
            "lon": 15.8303,
            "name": "Stanice Hradec Králové",
            "distance_m": 435
          },
          {
            "lat": 50.2045,
            "lon": 15.8577,
            "name": "Pracoviště odboru prevence",
            "distance_m": 1854
          },
          {
            "lat": 50.2013,
            "lon": 15.7779,
            "name": "Krajské operační a informační středisko",
            "distance_m": 3998
          },
          {
            "lat": 50.2013,
            "lon": 15.7779,
            "name": "Stanice Hradec Králové - Pražská",
            "distance_m": 3998
          }
        ]
      },
      "police": {
        "value": 5,
        "entities": [
          {
            "lat": 50.2162,
            "lon": 15.8491,
            "name": "Obvodní oddělení 2 Hradec Králové",
            "distance_m": 1403
          },
          {
            "lat": 50.2114,
            "lon": 15.8097,
            "name": "Obvodní oddělení 1 Hradec Králové",
            "distance_m": 1655
          },
          {
            "lat": 50.2001,
            "lon": 15.8563,
            "name": "Obvodní oddělení 3 Hradec Králové",
            "distance_m": 1961
          },
          {
            "lat": 50.2998,
            "lon": 15.8654,
            "name": "Obvodní oddělení Smiřice",
            "distance_m": 10339
          },
          {
            "lat": 50.2009,
            "lon": 15.9886,
            "name": "Obvodní oddělení Třebechovice pod Orebem",
            "distance_m": 11134
          },
          {
            "lat": 50.2372,
            "lon": 15.6393,
            "name": "Policejní stanice Nechanice",
            "distance_m": 14107
          }
        ]
      }
    },
    "noise": {
      "value": 3,
      "airport": {
        "value": 1,
        "entities": [
          {
            "lat": 50.253,
            "lon": 15.8453,
            "name": "Letiště Hradec Králové",
            "distance_m": 4952
          },
          {
            "lat": 50.3314,
            "lon": 15.9539,
            "name": "Letiště Jaroměř",
            "distance_m": 16088
          },
          {
            "lat": 50.4142,
            "lon": 15.8369,
            "name": "Letiště Dvůr Králové nad Labem",
            "distance_m": 22797
          },
          {
            "lat": 50.3567,
            "lon": 15.5772,
            "name": "Letiště Hořice",
            "distance_m": 24466
          },
          {
            "lat": 50.3642,
            "lon": 16.1136,
            "name": "Letiště Nové Město nad Metují",
            "distance_m": 26369
          }
        ]
      },
      "train_route": {
        "value": 4,
        "entities": [
          {
            "lat": 50.222653684701,
            "lon": 15.8344585485799,
            "name": "Hradec Králové, hl. n. - Letohrad, žel. st.",
            "distance_m": 1501
          },
          {
            "lat": 50.2103741619734,
            "lon": 15.8086778581849,
            "name": "Pardubice, hl. n. - Hradec Králové, hl. n. - Jaroměř, žel. st.",
            "distance_m": 1714
          },
          {
            "lat": 50.2094237522609,
            "lon": 15.8083466941688,
            "name": "Velký Osek, žel. st. - Chlumec nad Cidlinou, žel. st. - Hradec Králové hl. n.",
            "distance_m": 1733
          },
          {
            "lat": 50.2203581394684,
            "lon": 15.8113135324139,
            "name": "Hradec Králové, hl. n. - Jičín, žel. st. - Turnov, žel. st.",
            "distance_m": 1963
          }
        ]
      },
      "ambulance": {
        "value": 3,
        "entities": [
          {
            "lat": 50.2004,
            "lon": 15.8269,
            "name": "Areál LZS Fakultní nemocnice",
            "distance_m": 1062
          },
          {
            "lat": 50.1984,
            "lon": 15.8337,
            "name": "Hlavní budova",
            "distance_m": 1203
          }
        ]
      },
      "firefighter": {
        "value": 1,
        "entities": [
          {
            "lat": 50.2056,
            "lon": 15.8303,
            "name": "Krajské ředitelství",
            "distance_m": 435
          },
          {
            "lat": 50.2056,
            "lon": 15.8303,
            "name": "Stanice Hradec Králové",
            "distance_m": 435
          },
          {
            "lat": 50.2045,
            "lon": 15.8577,
            "name": "Pracoviště odboru prevence",
            "distance_m": 1854
          }
        ]
      },
      "police": {
        "value": 3,
        "entities": [
          {
            "lat": 50.2162,
            "lon": 15.8491,
            "name": "Obvodní oddělení 2 Hradec Králové",
            "distance_m": 1403
          },
          {
            "lat": 50.2114,
            "lon": 15.8097,
            "name": "Obvodní oddělení 1 Hradec Králové",
            "distance_m": 1655
          },
          {
            "lat": 50.2001,
            "lon": 15.8563,
            "name": "Obvodní oddělení 3 Hradec Králové",
            "distance_m": 1961
          }
        ]
      },
      "industrial_zone": {
        "value": 5,
        "entities": []
      }
    },
    "road_quality": {
      "value": 3,
      "entities": [
        {
          "lat": 50.2012109920044,
          "lon": 15.8325550010531,
          "name": "29810 (nevyhovující)",
          "distance_m": 888,
          "quality": 2
        },
        {
          "lat": 50.2174222593664,
          "lon": 15.8331443522992,
          "name": "29912 (havarijní)",
          "distance_m": 915,
          "quality": 1
        },
        {
          "lat": 50.2156481910978,
          "lon": 15.8424653020151,
          "name": "2997 (výborný)",
          "distance_m": 998,
          "quality": 5
        }
      ]
    }
  }
}
